[
  {
    "titolo": "Il Gladiatore",
    "regista": "Ridley Scott",
    "anno": 2000,
    "genere": "Storico",
    "location": "Colosseo",
    "citta": "Roma",
    "regione": "Lazio",
    "descrizione": "Un film epico ambientato nell'Antica Roma, con scene iconiche girate al Colosseo.",
    "immagine": "img/gladiatore.jpg",
    "latitudine": 41.8902,
    "longitudine": 12.4922,
    "galleria": [
      "img/colosseo1.jpg",
      "img/colosseo2.jpg",
      "img/colosseo3.jpg"
    ]
  },
  {
    "titolo": "La Dolce Vita",
    "regista": "Federico Fellini",
    "anno": 1960,
    "genere": "Drammatico",
    "location": "Fontana di Trevi",
    "citta": "Roma",
    "regione": "Lazio",
    "descrizione": "Uno dei film pi√π celebri di Fellini, con la famosa scena nella Fontana di Trevi.",
    "immagine": "img/la_dolce_vita.jpg",
    "latitudine": 41.9009,
    "longitudine": 12.4833,
    "galleria": [
      "img/fontana_trevi1.jpg",
      "img/fontana_trevi2.jpg"
    ]
  },
  {
    "titolo": "Nuovo Cinema Paradiso",
    "regista": "Giuseppe Tornatore",
    "anno": 1988,
    "genere": "Drammatico",
    "location": "Palazzo Adriano",
    "citta": "Palazzo Adriano",
    "regione": "Sicilia",
    "descrizione": "Un omaggio al cinema italiano, girato nella suggestiva piazza di Palazzo Adriano.",
    "immagine": "img/cinema_paradiso.jpg",
    "latitudine": 37.7036,
    "longitudine": 13.3129,
    "galleria": [
      "img/palazzo_adriano1.jpg",
      "img/palazzo_adriano2.jpg"
    ]
  },
  {
    "titolo": "Il Postino",
    "regista": "Michael Radford",
    "anno": 1994,
    "genere": "Romantico",
    "location": "Salina",
    "citta": "Salina",
    "regione": "Sicilia",
    "descrizione": "Una poetica storia d'amore e amicizia girata nelle isole Eolie.",
    "immagine": "img/il_postino.jpg",
    "latitudine": 38.5564,
    "longitudine": 14.8564,
    "galleria": [
      "img/salina1.jpg",
      "img/salina2.jpg"
    ]
  },
  {
    "titolo": "The Talented Mr. Ripley",
    "regista": "Anthony Minghella",
    "anno": 1999,
    "genere": "Thriller",
    "location": "Ischia",
    "citta": "Ischia",
    "regione": "Campania",
    "descrizione": "Un thriller ambientato in una splendida cornice italiana tra Napoli, Ischia e Venezia.",
    "immagine": "img/talented_mr_ripley.jpg",
    "latitudine": 40.7370,
    "longitudine": 13.9486,
    "galleria": [
      "img/ischia1.jpg",
      "img/ischia2.jpg"
    ]
  }
]
